{"event":"domain_event.cp_migrated","timestamp":"2025-08-29T13:00:00.000Z","eventId":"mig-0001","data":{"cpUuid":"mig-cp-0001","mandantUuid":"mig-mand-0001","companyUuid":"mig-comp-0001","chargeboxIdentity":"MIG-2001","label":"Migrated Station 1","serialNumber":"MIG-SN-2001","street":"Migrate St 1","zip":"60101","city":"Augsburg","countryAlpha2":"DE","geoLat":"48.3705","geoLong":"10.8978"}}
{"event":"domain_event.cp_migrated","timestamp":"2025-08-29T13:01:00.000Z","eventId":"mig-0002","data":{"cpUuid":"mig-cp-0002","mandantUuid":"mig-mand-0002","companyUuid":"mig-comp-0002","chargeboxIdentity":"MIG-2002","label":"Migrated Station 2","serialNumber":"MIG-SN-2002","street":"Migrate St 2","zip":"60202","city":"Bonn","countryAlpha2":"DE","geoLat":"50.7374","geoLong":"7.0982"}}
{"event":"domain_event.cp_migrated","timestamp":"2025-08-29T13:02:00.000Z","eventId":"mig-0003","data":{"cpUuid":"mig-cp-0003","mandantUuid":"mig-mand-0003","companyUuid":"mig-comp-0003","chargeboxIdentity":"MIG-2003","label":"Migrated Station 3","serialNumber":"MIG-SN-2003","street":"Migrate St 3","zip":"60303","city":"Dortmund","countryAlpha2":"DE","geoLat":"51.5136","geoLong":"7.4653"}}
{"event":"domain_event.cp_migrated","timestamp":"2025-08-29T13:03:00.000Z","eventId":"mig-0004","data":{"cpUuid":"mig-cp-0004","mandantUuid":"mig-mand-0004","companyUuid":"mig-comp-0004","chargeboxIdentity":"MIG-2004","label":"Migrated Station 4","serialNumber":"MIG-SN-2004","street":"Migrate St 4","zip":"60404","city":"Essen","countryAlpha2":"DE","geoLat":"51.4556","geoLong":"7.0116"}}
{"event":"domain_event.cp_migrated","timestamp":"2025-08-29T13:04:00.000Z","eventId":"mig-0005","data":{"cpUuid":"mig-cp-0005","mandantUuid":"mig-mand-0005","companyUuid":"mig-comp-0005","chargeboxIdentity":"MIG-2005","label":"Migrated Station 5","serialNumber":"MIG-SN-2005","street":"Migrate St 5","zip":"60505","city":"Freiburg","countryAlpha2":"DE","geoLat":"47.9990","geoLong":"7.8421"}}

